[{"city":"Beograd","county":"Grad Beograd","district":"Vozdovac","street":"Ulica Ustanicka","street_nb":"79","longitude":"20.4821000","latitude":"44.7858800","location_id":null,"blueprints":[],"images":[],"securities":[],"amenities":[],"pets":[],"heatings":[],"parkings":[],"addl_spaces":[],"expenses":[]},{"city":"Beograd","county":"Grad Beograd","district":"Zvezdara","street":"Ulica Vojina Djurasinovica Kostje","street_nb":null,"longitude":"20.5362200","latitude":"44.7889500","location_id":null,"blueprints":[],"images":[],"securities":[],"amenities":[],"pets":[],"heatings":[],"parkings":[],"addl_spaces":[],"expenses":[]},{"city":"Beograd","county":"Grad Beograd","district":"Zvezdara","street":"Ulica Majke Kujundzic","street_nb":null,"longitude":"20.5066300","latitude":"44.7912900","location_id":null,"blueprints":[],"images":[],"securities":[],"amenities":[],"pets":[],"heatings":[],"parkings":[],"addl_spaces":[],"expenses":[]},{"city":"Palilula","county":"Grad Beograd","district":"Borca","street":"Ulica Kombinatova","street_nb":"35","longitude":"20.4541000","latitude":"44.8794100","location_id":"NT_sE9Vfg4oj-hJsa6sEERIJD_zUD","blueprints":[],"images":[],"securities":[],"amenities":[],"pets":[],"heatings":[],"parkings":[],"addl_spaces":[],"expenses":[]},{"city":"Beograd","county":"Grad Beograd","district":"Vozdovac","street":"Ulica Kostolacka","street_nb":null,"longitude":"20.4796300","latitude":"44.7704900","location_id":"NT_OdQxrejBwxUPVZZ5XgtmqA","blueprints":[],"images":[],"securities":[],"amenities":[],"pets":[],"heatings":[],"parkings":[],"addl_spaces":[],"expenses":[]},{"city":"Beograd","county":"Grad Beograd","district":"Palilula","street":"Ulica Homoljska","street_nb":null,"longitude":"20.5119100","latitude":"44.8154600","location_id":"NT_CjJYhAGQQu.O9Ex3WzWulB","blueprints":[],"images":[],"securities":[],"amenities":[],"pets":[],"heatings":[],"parkings":[],"addl_spaces":[],"expenses":[]},{"city":"Beograd","county":"Grad Beograd","district":"Stari Grad","street":"Ulica Cara Dusana","street_nb":"40","longitude":"20.4604300","latitude":"44.8230000","location_id":"NT_vThOs55OgzJ.zaXct9BQhA_0AD","blueprints":[],"images":[],"securities":[],"amenities":[],"pets":[],"heatings":[],"parkings":[],"addl_spaces":[],"expenses":[]},{"city":"Beograd","county":"Grad Beograd","district":"Novi Beograd","street":"Ulica Jurija Gagarina","street_nb":"190","longitude":"20.3725700","latitude":"44.7999500","location_id":"NT_MZTOS2c6NHHKZ3mfsdR.xB_xkDM","blueprints":[],"images":[],"securities":[],"amenities":[],"pets":[],"heatings":[],"parkings":[],"addl_spaces":[],"expenses":[]},{"city":"Beograd","county":"Grad Beograd","district":"Vozdovac","street":"Ulica Vojvode Stepe","street_nb":null,"longitude":"20.4715000","latitude":"44.7820600","location_id":"NT_uwEupjKFHmnvZ3kPsyKuwA","blueprints":[],"images":[],"securities":[],"amenities":[],"pets":[],"heatings":[],"parkings":[],"addl_spaces":[],"expenses":[]},{"city":"Beograd","county":"Grad Beograd","district":"Rakovica","street":"Ulica 17. oktobra","street_nb":null,"longitude":"20.4301900","latitude":"44.7284900","location_id":"NT_BD6raopZ.p38eBX1Tq4o-A","blueprints":[],"images":[],"securities":[],"amenities":[],"pets":[],"heatings":[],"parkings":[],"addl_spaces":[],"expenses":[]},{"city":"Beograd","county":"Grad Beograd","district":"Novi Beograd","street":"Ulica Palmira Toljatija","street_nb":null,"longitude":"20.4132700","latitude":"44.8278700","location_id":"NT_MJhENqfUCEJU0YNROb6WYC","blueprints":[],"images":[],"securities":[],"amenities":[],"pets":[],"heatings":[],"parkings":[],"addl_spaces":[],"expenses":[]},{"city":"Beograd","county":"Grad Beograd","district":"Palilula","street":"Ulica Patrisa Lumumbe","street_nb":null,"longitude":"20.5144900","latitude":"44.8148200","location_id":"NT_lKkSavCsQ0zKoc0dhGlkDD","blueprints":[],"images":[],"securities":[],"amenities":[],"pets":[],"heatings":[],"parkings":[],"addl_spaces":[],"expenses":[]},{"city":"Beograd","county":"Grad Beograd","district":"Zvezdara","street":"Ulica Steve Zigona","street_nb":null,"longitude":"20.5237500","latitude":"44.7991700","location_id":"NT_GaftC6xGMb3UrIjbAe5znA","blueprints":[],"images":[],"securities":[],"amenities":[],"pets":[],"heatings":[],"parkings":[],"addl_spaces":[],"expenses":[]},{"city":"Beograd","county":"Grad Beograd","district":"Novi Beograd","street":"Ulica Zemunska","street_nb":null,"longitude":"20.3906200","latitude":"44.8092500","location_id":"NT_x8.9ozm4CJYAV6.3HX0xSC","blueprints":[],"images":[],"securities":[],"amenities":[],"pets":[],"heatings":[],"parkings":[],"addl_spaces":[],"expenses":[]},{"city":"Beograd","county":"Grad Beograd","district":"Vracar","street":"Ulica Gospodara Vucica","street_nb":null,"longitude":"20.4839000","latitude":"44.7922300","location_id":"NT_scTGgeOaGJWLmx0qDzFrkC","blueprints":[],"images":[],"securities":[],"amenities":[],"pets":[],"heatings":[],"parkings":[],"addl_spaces":[],"expenses":[]},{"city":"Novi Sad","county":"Juzno-Backi Okrug","district":"Novi Sad","street":"Ulica Jug-Bogdanova","street_nb":null,"longitude":"19.8459000","latitude":"45.2662000","location_id":"NT_plWQkTl1grFyIir-FiTCkB","blueprints":[],"images":[],"securities":[],"amenities":[],"pets":[],"heatings":[],"parkings":[],"addl_spaces":[],"expenses":[]},{"city":"Beograd","county":"Grad Beograd","district":"Zvezdara","street":"Ulica Vojvode Brane","street_nb":"17","longitude":"20.4831400","latitude":"44.8054400","location_id":"NT_iN.cYuR3JGbQPgdJiSwYLB_xcD","blueprints":[],"images":[],"securities":[],"amenities":[],"pets":[],"heatings":[],"parkings":[],"addl_spaces":[],"expenses":[]},{"city":"Smederevo","county":"Podunavski Okrug","district":"Smederevo","street":"Ulica Kneza Mihaila","street_nb":"8","longitude":"20.9271000","latitude":"44.6631300","location_id":"NT_bBcQ7ii69BJ78oadNYhpPD_4A","blueprints":[],"images":[],"securities":[],"amenities":[],"pets":[],"heatings":[],"parkings":[],"addl_spaces":[],"expenses":[]},{"city":"Beograd","county":"Grad Beograd","district":"Zvezdara","street":"Ulica Steve Zigona","street_nb":null,"longitude":"20.5237500","latitude":"44.7991700","location_id":"NT_GaftC6xGMb3UrIjbAe5znA","blueprints":[],"images":[],"securities":[],"amenities":[],"pets":[],"heatings":[],"parkings":[],"addl_spaces":[],"expenses":[]},{"city":"Beograd","county":"Grad Beograd","district":"Stari Grad","street":"Ulica Brace Baruh","street_nb":null,"longitude":"20.4584900","latitude":"44.8265000","location_id":"NT_xAP.3iKyvDaEzvJ0CUi76C","blueprints":[],"images":[],"securities":[],"amenities":[],"pets":[],"heatings":[],"parkings":[],"addl_spaces":[],"expenses":[]},{"city":"Beograd","county":"Grad Beograd","district":"Stari Grad","street":"Ulica Brace Baruh","street_nb":null,"longitude":"20.4584900","latitude":"44.8265000","location_id":"NT_xAP.3iKyvDaEzvJ0CUi76C","blueprints":[],"images":[],"securities":[],"amenities":[],"pets":[],"heatings":[],"parkings":[],"addl_spaces":[],"expenses":[]},{"city":"Beograd","county":"Grad Beograd","district":"Vozdovac","street":"Ulica Ignjata Joba","street_nb":null,"longitude":"20.4982100","latitude":"44.7729100","location_id":"NT_A0pXv49nHn8hV2JEjf1hCC","blueprints":[],"images":[],"securities":[],"amenities":[],"pets":[],"heatings":[],"parkings":[],"addl_spaces":[],"expenses":[]},{"city":"Beograd","county":"Grad Beograd","district":"Palilula","street":"Ulica Mirijevsko brdo","street_nb":null,"longitude":"20.5266900","latitude":"44.8027100","location_id":"NT_iJuMHy0d2Pifmeupz7wwEA","blueprints":[],"images":[],"securities":[],"amenities":[],"pets":[],"heatings":[],"parkings":[],"addl_spaces":[],"expenses":[]},{"city":"Beograd","county":"Grad Beograd","district":"Vozdovac","street":"Bulevar Peka Dapcevica","street_nb":null,"longitude":"20.4975100","latitude":"44.7562100","location_id":"NT_NS8oem2R0-P8pUwv9HYovA","blueprints":[],"images":[],"securities":[],"amenities":[],"pets":[],"heatings":[],"parkings":[],"addl_spaces":[],"expenses":[]},{"city":"Beograd","county":"Grad Beograd","district":"Zvezdara","street":"Ulica Vojislava Ilica","street_nb":null,"longitude":"20.4998400","latitude":"44.7876100","location_id":"NT_ycoY0-RvvTI-f6dxCyzf3D","blueprints":[],"images":[],"securities":[],"amenities":[],"pets":[],"heatings":[],"parkings":[],"addl_spaces":[],"expenses":[]},{"city":"Novi Sad","county":"Juzno-Backi Okrug","district":"Novi Sad","street":"Ulica Dusana Vasiljeva","street_nb":null,"longitude":"19.8535200","latitude":"45.2605900","location_id":"NT_dxmvmyWVz-PmTRUSTpf21D","blueprints":[],"images":[],"securities":[],"amenities":[],"pets":[],"heatings":[],"parkings":[],"addl_spaces":[],"expenses":[]},{"city":"Beograd","county":"Grad Beograd","district":"Zvezdara","street":"Ulica Dimitrija Tucovica","street_nb":"74","longitude":"20.4892200","latitude":"44.8027600","location_id":"NT_GI-ALaGtKMSTmF9xfPHTCC_3QD","blueprints":[],"images":[],"securities":[],"amenities":[],"pets":[],"heatings":[],"parkings":[],"addl_spaces":[],"expenses":[]},{"city":"Beograd","county":"Grad Beograd","district":"Zvezdara","street":"Bulevar Kralja Aleksandra","street_nb":null,"longitude":"20.4940600","latitude":"44.7975700","location_id":"NT_HWQzkirH555HA9ikEVFfIA","blueprints":[],"images":[],"securities":[],"amenities":[],"pets":[],"heatings":[],"parkings":[],"addl_spaces":[],"expenses":[]},{"city":"Beograd","county":"Grad Beograd","district":"Zvezdara","street":"Ulica Matice srpske","street_nb":"63","longitude":"20.5255000","latitude":"44.7901400","location_id":"NT_fim4AS.JCSk1DUZTqbJEiD_2MD","blueprints":[],"images":[],"securities":[],"amenities":[],"pets":[],"heatings":[],"parkings":[],"addl_spaces":[],"expenses":[]},{"city":"Beograd","county":"Grad Beograd","district":"Vozdovac","street":"Ulica Zaplanjska","street_nb":null,"longitude":"20.4880800","latitude":"44.7778100","location_id":"NT_or4bZmUhcSEwwFH92Ukf2C","blueprints":[],"images":[],"securities":[],"amenities":[],"pets":[],"heatings":[],"parkings":[],"addl_spaces":[],"expenses":[]},{"city":"Beograd","county":"Grad Beograd","district":"Cukarica","street":"Ulica Ratka Mitrovica","street_nb":"181","longitude":"20.4299800","latitude":"44.7487300","location_id":"NT_PwaSpDMDBEt3HcDmaQyylC_xgTM","blueprints":[],"images":[],"securities":[],"amenities":[],"pets":[],"heatings":[],"parkings":[],"addl_spaces":[],"expenses":[]},{"city":"Beograd","county":"Grad Beograd","district":"Zvezdara","street":"Ulica Sejkina","street_nb":null,"longitude":"20.5285900","latitude":"44.7984400","location_id":"NT_Bi55pKSZJPLU7OeZPq94XD","blueprints":[],"images":[],"securities":[],"amenities":[],"pets":[],"heatings":[],"parkings":[],"addl_spaces":[],"expenses":[]},{"city":"Beograd","county":"Grad Beograd","district":"Vracar","street":"Ulica Stojana Protica","street_nb":null,"longitude":"20.4722000","latitude":"44.7965900","location_id":"NT_U52FkG8at.btoAQ7x06tmA","blueprints":[],"images":[],"securities":[],"amenities":[],"pets":[],"heatings":[],"parkings":[],"addl_spaces":[],"expenses":[]},{"city":"Beograd","county":"Grad Beograd","district":"Zvezdara","street":"Ulica Voje Veljkovica","street_nb":"13","longitude":"20.5176600","latitude":"44.7876900","location_id":"NT_AIyAURqY0zAFh53jTUwHXB_xMD","blueprints":[],"images":[],"securities":[],"amenities":[],"pets":[],"heatings":[],"parkings":[],"addl_spaces":[],"expenses":[]},{"city":"Beograd","county":"Grad Beograd","district":"Zvezdara","street":"Ulica Onisima Popovica","street_nb":null,"longitude":"20.5119400","latitude":"44.7898000","location_id":"NT_aFOGxGInsqMbcjtpzWuJhA","blueprints":[],"images":[],"securities":[],"amenities":[],"pets":[],"heatings":[],"parkings":[],"addl_spaces":[],"expenses":[]},{"city":"Beograd","county":"Grad Beograd","district":"Vozdovac","street":"Ulica Davida Pajica","street_nb":"5","longitude":"20.4837600","latitude":"44.7916900","location_id":"NT_.E3SC0wv4SnWRK13.sUc9D_1A","blueprints":[],"images":[],"securities":[],"amenities":[],"pets":[],"heatings":[],"parkings":[],"addl_spaces":[],"expenses":[]},{"city":"Novi Sad","county":"Juzno-Backi Okrug","district":"Novi Sad","street":"Ulica Dalmatinska","street_nb":"33","longitude":"19.8175200","latitude":"45.2397300","location_id":"NT_gJLjWFr1fFxbyqMoKCMQWD_zMD","blueprints":[],"images":[],"securities":[],"amenities":[],"pets":[],"heatings":[],"parkings":[],"addl_spaces":[],"expenses":[]},{"city":"Beograd","county":"Grad Beograd","district":"Zvezdara","street":"Ulica Rajacka","street_nb":null,"longitude":"20.5021200","latitude":"44.7664800","location_id":"NT_gIgPLbmB1XWgoFQage5AVB","blueprints":[],"images":[],"securities":[],"amenities":[],"pets":[],"heatings":[],"parkings":[],"addl_spaces":[],"expenses":[]},{"city":"Novi Sad","county":"Juzno-Backi Okrug","district":"Novi Sad","street":"Ulica Novosadskog sajma","street_nb":null,"longitude":"19.8274500","latitude":"45.2543900","location_id":"NT_DKFtLKrTRmUsJsU55KFOLD","blueprints":[],"images":[],"securities":[],"amenities":[],"pets":[],"heatings":[],"parkings":[],"addl_spaces":[],"expenses":[]},{"city":"Beograd","county":"Grad Beograd","district":"Zemun","street":"Ulica Mozerova","street_nb":"4","longitude":"20.3915400","latitude":"44.8404900","location_id":"NT_cYXde8LBC2pWHUOWrwud7D_0A","blueprints":[],"images":[],"securities":[],"amenities":[],"pets":[],"heatings":[],"parkings":[],"addl_spaces":[],"expenses":[]},{"city":"Beograd","county":"Grad Beograd","district":"Vracar","street":"Ulica Politova","street_nb":"10","longitude":"20.4759100","latitude":"44.7919900","location_id":"NT_j21BvALUrmfSKMB3cRtu4B_xAD","blueprints":[],"images":[],"securities":[],"amenities":[],"pets":[],"heatings":[],"parkings":[],"addl_spaces":[],"expenses":[]},{"city":"Beograd","county":"Grad Beograd","district":"Vracar","street":"Ulica Gruzanska","street_nb":null,"longitude":"20.4868800","latitude":"44.7969900","location_id":"NT_0hL99-8yV8GWl0jzxzBMYC","blueprints":[],"images":[],"securities":[],"amenities":[],"pets":[],"heatings":[],"parkings":[],"addl_spaces":[],"expenses":[]},{"city":"Beograd","county":"Grad Beograd","district":"Zvezdara","street":"Ulica Miroslava Krleze","street_nb":null,"longitude":"20.5422500","latitude":"44.7889500","location_id":"NT_h0V-ldA5YozRzf77l6cfQC","blueprints":[],"images":[],"securities":[],"amenities":[],"pets":[],"heatings":[],"parkings":[],"addl_spaces":[],"expenses":[]},{"city":"Beograd","county":"Grad Beograd","district":"Vozdovac","street":"Ulica Kostolacka","street_nb":null,"longitude":"20.4796300","latitude":"44.7704900","location_id":"NT_OdQxrejBwxUPVZZ5XgtmqA","blueprints":[],"images":[],"securities":[],"amenities":[],"pets":[],"heatings":[],"parkings":[],"addl_spaces":[],"expenses":[]},{"city":"Zrenjanin","county":"Srednje Banatski Okrug","district":"Zrenjanin","street":"Ulica Kralja Aleksandra I Karadjordjevica","street_nb":null,"longitude":"20.3939200","latitude":"45.3799000","location_id":"NT_TmPNlycfM1pJdJMjJl11IA","blueprints":[],"images":[],"securities":[],"amenities":[],"pets":[],"heatings":[],"parkings":[],"addl_spaces":[],"expenses":[]},{"city":"Novi Sad","county":"Juzno-Backi Okrug","district":"Novi Sad","street":"Ulica Branka Copica","street_nb":null,"longitude":"19.7882900","latitude":"45.2331800","location_id":"NT_YCIORyiOdQM4FmHorpky6B","blueprints":[],"images":[],"securities":[],"amenities":[],"pets":[],"heatings":[],"parkings":[],"addl_spaces":[],"expenses":[]},{"city":"Beograd","county":"Grad Beograd","district":"Palilula","street":"Ulica 27. marta","street_nb":"41","longitude":"20.4755200","latitude":"44.8103200","location_id":"NT_mp9Qr4LCpVl7nqThHoo1BB_0ED","blueprints":[],"images":[],"securities":[],"amenities":[],"pets":[],"heatings":[],"parkings":[],"addl_spaces":[],"expenses":[]},{"city":"Beograd","county":"Grad Beograd","district":"Vozdovac","street":"Ulica Gospodara Vucica","street_nb":null,"longitude":"20.4839600","latitude":"44.7922300","location_id":"NT_932hkYDvXNjI7oEfUkErSB","blueprints":[],"images":[],"securities":[],"amenities":[],"pets":[],"heatings":[],"parkings":[],"addl_spaces":[],"expenses":[]},{"city":"Nis","county":"Nisavski Okrug","district":"Pantelej","street":"Ulica Kosovke devojke","street_nb":"19","longitude":"21.9075200","latitude":"43.3308800","location_id":"NT_FJtolKSfM.fsLhcANsgksD_xkD","blueprints":[],"images":[],"securities":[],"amenities":[],"pets":[],"heatings":[],"parkings":[],"addl_spaces":[],"expenses":[]},{"city":"Beograd","county":"Grad Beograd","district":"Stari Grad","street":"Ulica Koste Stojanovica","street_nb":"8","longitude":"20.4704300","latitude":"44.8137300","location_id":"NT_YNZtdOzKOuCMPSAlX3sLmA_4A","blueprints":[],"images":[],"securities":[],"amenities":[],"pets":[],"heatings":[],"parkings":[],"addl_spaces":[],"expenses":[]},{"city":"Beograd","county":"Grad Beograd","district":"Rakovica","street":"Ulica Knezevacka","street_nb":null,"longitude":"20.4292200","latitude":"44.7355300","location_id":"NT_ry9-lDceBWB5WzTKT9zICA","blueprints":[],"images":[],"securities":[],"amenities":[],"pets":[],"heatings":[],"parkings":[],"addl_spaces":[],"expenses":[]},{"city":"Beograd","county":"Grad Beograd","district":"Cukarica","street":"Ulica Nikolaja Gogolja","street_nb":null,"longitude":"20.4126100","latitude":"44.7760400","location_id":"NT_Fpkx1SuKr4HE6f0pS9HRjB","blueprints":[],"images":[],"securities":[],"amenities":[],"pets":[],"heatings":[],"parkings":[],"addl_spaces":[],"expenses":[]},{"city":"Beograd","county":"Grad Beograd","district":"Zvezdara","street":"Ulica Mis Irbijeve","street_nb":null,"longitude":"20.5088500","latitude":"44.7882500","location_id":"NT_OcNJvf4TIc6bQGqC9M1FZD","blueprints":[],"images":[],"securities":[],"amenities":[],"pets":[],"heatings":[],"parkings":[],"addl_spaces":[],"expenses":[]},{"city":"Beograd","county":"Grad Beograd","district":"Vozdovac","street":"Ulica Brace Jerkovic","street_nb":"37","longitude":"20.4845100","latitude":"44.7787700","location_id":"NT_DqR0WuIHpPg9wDyskTOd2D_zcD","blueprints":[],"images":[],"securities":[],"amenities":[],"pets":[],"heatings":[],"parkings":[],"addl_spaces":[],"expenses":[]},{"city":"Beograd","county":"Grad Beograd","district":"Novi Beograd","street":"Ulica Ismeta Mujezinovica","street_nb":null,"longitude":"20.3753200","latitude":"44.8155800","location_id":"NT_JdrrAQ2dzICOQsVMRfjrFA","blueprints":[],"images":[],"securities":[],"amenities":[],"pets":[],"heatings":[],"parkings":[],"addl_spaces":[],"expenses":[]},{"city":"Beograd","county":"Grad Beograd","district":"Vracar","street":"Ulica Sime Igumanova","street_nb":"20","longitude":"20.4726500","latitude":"44.7919900","location_id":"NT_HNXz7bVZ-FLdk3PTLydB2D_yAD","blueprints":[],"images":[],"securities":[],"amenities":[],"pets":[],"heatings":[],"parkings":[],"addl_spaces":[],"expenses":[]},{"city":"Beograd","county":"Grad Beograd","district":"Vozdovac","street":"Ulica Zaplanjska","street_nb":null,"longitude":"20.4880800","latitude":"44.7778100","location_id":"NT_or4bZmUhcSEwwFH92Ukf2C","blueprints":[],"images":[],"securities":[],"amenities":[],"pets":[],"heatings":[],"parkings":[],"addl_spaces":[],"expenses":[]},{"city":"Beograd","county":"Grad Beograd","district":"Vracar","street":"Ulica Sumatovacka","street_nb":null,"longitude":"20.4827200","latitude":"44.7944600","location_id":"NT_pW7K1GELZBtT91LH.QliqD","blueprints":[],"images":[],"securities":[],"amenities":[],"pets":[],"heatings":[],"parkings":[],"addl_spaces":[],"expenses":[]},{"city":"Beograd","county":"Grad Beograd","district":"Cukarica","street":"Ulica Vodovodska","street_nb":null,"longitude":"20.4072800","latitude":"44.7602800","location_id":"NT_JGcC8-OVQzjUhd40jAp.1A","blueprints":[],"images":[],"securities":[],"amenities":[],"pets":[],"heatings":[],"parkings":[],"addl_spaces":[],"expenses":[]},{"city":"Beograd","county":"Grad Beograd","district":"Palilula","street":"Ulica Dragoslava Srejovica","street_nb":"55","longitude":"20.5072400","latitude":"44.8117600","location_id":"NT_AepR-PZuIDcxpwYiwaD-rC_1UD","blueprints":[],"images":[],"securities":[],"amenities":[],"pets":[],"heatings":[],"parkings":[],"addl_spaces":[],"expenses":[]},{"city":"Beograd","county":"Grad Beograd","district":"Vozdovac","street":"Ulica Bozidara Jankovica","street_nb":null,"longitude":"20.4743400","latitude":"44.7829000","location_id":"NT_U4shaPxy3IRVw8j-7-FNnC","blueprints":[],"images":[],"securities":[],"amenities":[],"pets":[],"heatings":[],"parkings":[],"addl_spaces":[],"expenses":[]},{"city":"Beograd","county":"Grad Beograd","district":"Vozdovac","street":"Ulica Brace Jerkovic","street_nb":null,"longitude":"20.4879200","latitude":"44.7713000","location_id":"NT_DqR0WuIHpPg9wDyskTOd2D","blueprints":[],"images":[],"securities":[],"amenities":[],"pets":[],"heatings":[],"parkings":[],"addl_spaces":[],"expenses":[]},{"city":"Beograd","county":"Grad Beograd","district":"Zvezdara","street":"Ulica Vojislava Ilica","street_nb":"7","longitude":"20.4906600","latitude":"44.7953500","location_id":"NT_UljSgRUxbgdbmZW530v.1A_3A","blueprints":[],"images":[],"securities":[],"amenities":[],"pets":[],"heatings":[],"parkings":[],"addl_spaces":[],"expenses":[]},{"city":"Beograd","county":"Grad Beograd","district":"Vozdovac","street":"Ulica Vojvode Vlahovica","street_nb":"49","longitude":"20.5068400","latitude":"44.7596000","location_id":"NT_.wCwY5M9Uxl6.3eFTFgPaA_0kD","blueprints":[],"images":[],"securities":[],"amenities":[],"pets":[],"heatings":[],"parkings":[],"addl_spaces":[],"expenses":[]},{"city":"Beograd","county":"Grad Beograd","district":"Vozdovac","street":"Ulica Vojvode Stepe","street_nb":"327","longitude":"20.4833000","latitude":"44.7641100","location_id":"NT_uwEupjKFHmnvZ3kPsyKuwA_zIzN","blueprints":[],"images":[],"securities":[],"amenities":[],"pets":[],"heatings":[],"parkings":[],"addl_spaces":[],"expenses":[]},{"city":"Beograd","county":"Grad Beograd","district":"Vozdovac","street":"Ulica Zaplanjska","street_nb":null,"longitude":"20.4880800","latitude":"44.7778100","location_id":"NT_or4bZmUhcSEwwFH92Ukf2C","blueprints":[],"images":[],"securities":[],"amenities":[],"pets":[],"heatings":[],"parkings":[],"addl_spaces":[],"expenses":[]},{"city":"Beograd","county":"Grad Beograd","district":"Vozdovac","street":"Ulica Ignjata Joba","street_nb":null,"longitude":"20.4926400","latitude":"44.7762600","location_id":"NT_MtKZLAK4oBZ6M0dzvGsJ4B","blueprints":[],"images":[],"securities":[],"amenities":[],"pets":[],"heatings":[],"parkings":[],"addl_spaces":[],"expenses":[]},{"city":"Beograd","county":"Grad Beograd","district":"Zvezdara","street":"Ulica Ruzveltova","street_nb":"10","longitude":"20.4800200","latitude":"44.8064200","location_id":"NT_nkCSOiZcfoj4i1MfmU..jD_xAD","blueprints":[],"images":[],"securities":[],"amenities":[],"pets":[],"heatings":[],"parkings":[],"addl_spaces":[],"expenses":[]},{"city":"Beograd","county":"Grad Beograd","district":"Rakovica","street":"Ulica Bogdana Zerajica","street_nb":null,"longitude":"20.4495900","latitude":"44.7447100","location_id":"NT_Gj0UNqmBZQP0I6UjTGPfAD","blueprints":[],"images":[],"securities":[],"amenities":[],"pets":[],"heatings":[],"parkings":[],"addl_spaces":[],"expenses":[]},{"city":"Beograd","county":"Grad Beograd","district":"Novi Beograd","street":"Ulica Pere Segedinca","street_nb":"14","longitude":"20.3780200","latitude":"44.8095300","location_id":"NT_11HT-gmJZ55I9nnZv.imCA_xQD","blueprints":[],"images":[],"securities":[],"amenities":[],"pets":[],"heatings":[],"parkings":[],"addl_spaces":[],"expenses":[]},{"city":"Beograd","county":"Grad Beograd","district":"Zvezdara","street":"Ulica Cvetanova cuprija","street_nb":"117","longitude":"20.5156500","latitude":"44.7649800","location_id":"NT_JxYOodnzJdZlcZZHctzlwC_xEzN","blueprints":[],"images":[],"securities":[],"amenities":[],"pets":[],"heatings":[],"parkings":[],"addl_spaces":[],"expenses":[]},{"city":"Beograd","county":"Grad Beograd","district":"Vozdovac","street":"Ulica Brace Jerkovic","street_nb":null,"longitude":"20.5003200","latitude":"44.7669600","location_id":"NT_QCCnErSwC5KAXOn0nrd3bD","blueprints":[],"images":[],"securities":[],"amenities":[],"pets":[],"heatings":[],"parkings":[],"addl_spaces":[],"expenses":[]},{"city":"Zvezdara","county":"Grad Beograd","district":null,"street":"Ulica Mihaila Bulgakova","street_nb":null,"longitude":"20.5501400","latitude":"44.7828200","location_id":"NT_Ajq7VrwdmHb.jSJfVMcDnD","blueprints":[],"images":[],"securities":[],"amenities":[],"pets":[],"heatings":[],"parkings":[],"addl_spaces":[],"expenses":[]},{"city":"Beograd","county":"Grad Beograd","district":"Vozdovac","street":"Ulica Zaplanjska","street_nb":null,"longitude":"20.4880800","latitude":"44.7778100","location_id":"NT_or4bZmUhcSEwwFH92Ukf2C","blueprints":[],"images":[],"securities":[],"amenities":[],"pets":[],"heatings":[],"parkings":[],"addl_spaces":[],"expenses":[]},{"city":"Beograd","county":"Grad Beograd","district":"Cukarica","street":"Ulica Arcibalda Rajsa","street_nb":null,"longitude":"20.4267600","latitude":"44.7510200","location_id":"NT_iinD-dNPU8bswEDWavzqqD","blueprints":[],"images":[],"securities":[],"amenities":[],"pets":[],"heatings":[],"parkings":[],"addl_spaces":[],"expenses":[]},{"city":"Beograd","county":"Grad Beograd","district":"Zemun","street":"Ulica Alaska","street_nb":null,"longitude":"20.3883500","latitude":"44.8532200","location_id":"NT_AOJC2XFGa1DYFIXPihVgMD","blueprints":[],"images":[],"securities":[],"amenities":[],"pets":[],"heatings":[],"parkings":[],"addl_spaces":[],"expenses":[]},{"city":"Beograd","county":"Grad Beograd","district":"Palilula","street":"Ulica Dragoslava Srejovica","street_nb":"74","longitude":"20.5232600","latitude":"44.8016700","location_id":"NT_AepR-PZuIDcxpwYiwaD-rC_3QD","blueprints":[],"images":[],"securities":[],"amenities":[],"pets":[],"heatings":[],"parkings":[],"addl_spaces":[],"expenses":[]},{"city":"Beograd","county":"Grad Beograd","district":"Cukarica","street":"Ulica Kirovljeva","street_nb":null,"longitude":"20.4178100","latitude":"44.7845800","location_id":"NT_2PNaYGV1jrxahIO.RYwwMC","blueprints":[],"images":[],"securities":[],"amenities":[],"pets":[],"heatings":[],"parkings":[],"addl_spaces":[],"expenses":[]},{"city":"Beograd","county":"Grad Beograd","district":"Vozdovac","street":"Ulica 2. srpske armije","street_nb":null,"longitude":"20.4923800","latitude":"44.7561200","location_id":"NT_.2cCvAtbZEkbwlhDzShiXC","blueprints":[],"images":[],"securities":[],"amenities":[],"pets":[],"heatings":[],"parkings":[],"addl_spaces":[],"expenses":[]},{"city":"Beograd","county":"Grad Beograd","district":"Zvezdara","street":"Ulica Dragoslava Srejovica","street_nb":"76","longitude":"20.5250800","latitude":"44.8000500","location_id":"NT_.5w-O.GYa.xRH9Xc9.VuQA_3YD","blueprints":[],"images":[],"securities":[],"amenities":[],"pets":[],"heatings":[],"parkings":[],"addl_spaces":[],"expenses":[]},{"city":"Beograd","county":"Grad Beograd","district":"Novi Beograd","street":"Ulica Gandijeva","street_nb":"11","longitude":"20.3841100","latitude":"44.8093300","location_id":"NT_Hd.9.FA9hyzN18XkmJg1YA_xED","blueprints":[],"images":[],"securities":[],"amenities":[],"pets":[],"heatings":[],"parkings":[],"addl_spaces":[],"expenses":[]},{"city":"Beograd","county":"Grad Beograd","district":"Vozdovac","street":"Ulica Vojvode Stepe","street_nb":null,"longitude":"20.5159900","latitude":"44.7433800","location_id":"NT_gqULStbwLugoQ9lW1D5sIC","blueprints":[],"images":[],"securities":[],"amenities":[],"pets":[],"heatings":[],"parkings":[],"addl_spaces":[],"expenses":[]},{"city":"Beograd","county":"Grad Beograd","district":"Zvezdara","street":"Ulica Ustanicka","street_nb":null,"longitude":"20.5161100","latitude":"44.7834300","location_id":"NT_rFCT45m6jYWTz.Xs3.mgAD","blueprints":[],"images":[],"securities":[],"amenities":[],"pets":[],"heatings":[],"parkings":[],"addl_spaces":[],"expenses":[]},{"city":"Beograd","county":"Grad Beograd","district":"Rakovica","street":"Ulica Slavka Rodica","street_nb":"17","longitude":"20.4317000","latitude":"44.7383000","location_id":"NT_dt..z72mH2RGf8Zyu3KqtC_xcD","blueprints":[],"images":[],"securities":[],"amenities":[],"pets":[],"heatings":[],"parkings":[],"addl_spaces":[],"expenses":[]},{"city":"Beograd","county":"Grad Beograd","district":"Zvezdara","street":"Ulica Toplicka","street_nb":null,"longitude":"20.4882800","latitude":"44.8050000","location_id":"NT_XVh3XOMgrLNxDzA3alEGXC","blueprints":[],"images":[],"securities":[],"amenities":[],"pets":[],"heatings":[],"parkings":[],"addl_spaces":[],"expenses":[]},{"city":"Beograd","county":"Grad Beograd","district":"Palilula","street":"Ulica Diljska","street_nb":null,"longitude":"20.5102500","latitude":"44.8152700","location_id":"NT_1tElCpU2CdGA7Ukdgcs4tB","blueprints":[],"images":[],"securities":[],"amenities":[],"pets":[],"heatings":[],"parkings":[],"addl_spaces":[],"expenses":[]},{"city":"Beograd","county":"Grad Beograd","district":"Zvezdara","street":"Ulica Ljubise Miodragovica","street_nb":null,"longitude":"20.5469100","latitude":"44.7907800","location_id":"NT_u4tbQ0XLWBGa2ClUW4sVwD","blueprints":[],"images":[],"securities":[],"amenities":[],"pets":[],"heatings":[],"parkings":[],"addl_spaces":[],"expenses":[]},{"city":"Beograd","county":"Grad Beograd","district":"Zvezdara","street":"Ulica Pancina","street_nb":null,"longitude":"20.4974200","latitude":"44.8049300","location_id":"NT_ox4txFvmUap5jpzdAvqx6D","blueprints":[],"images":[],"securities":[],"amenities":[],"pets":[],"heatings":[],"parkings":[],"addl_spaces":[],"expenses":[]},{"city":"Beograd","county":"Grad Beograd","district":"Rakovica","street":"Ulica Stevana Opacica","street_nb":null,"longitude":"20.4557100","latitude":"44.7469700","location_id":"NT_RA2smg.sydNyIvTaQeJ-lC","blueprints":[],"images":[],"securities":[],"amenities":[],"pets":[],"heatings":[],"parkings":[],"addl_spaces":[],"expenses":[]},{"city":"Beograd","county":"Grad Beograd","district":"Zvezdara","street":"Ulica Pere Veljkovica","street_nb":null,"longitude":"20.5289300","latitude":"44.7934200","location_id":"NT_iQqVrJsjiJeXmRtjCBr5iD","blueprints":[],"images":[],"securities":[],"amenities":[],"pets":[],"heatings":[],"parkings":[],"addl_spaces":[],"expenses":[]},{"city":"Beograd","county":"Grad Beograd","district":"Zvezdara","street":"Ulica Matice srpske","street_nb":"71","longitude":"20.5211100","latitude":"44.7906200","location_id":"NT_fim4AS.JCSk1DUZTqbJEiD_3ED","blueprints":[],"images":[],"securities":[],"amenities":[],"pets":[],"heatings":[],"parkings":[],"addl_spaces":[],"expenses":[]},{"city":"Beograd","county":"Grad Beograd","district":"Vozdovac","street":"Ulica Dragice Koncar","street_nb":null,"longitude":"20.4985800","latitude":"44.7671400","location_id":"NT_CgY4CaYxRGx7ef7SWqCgiD","blueprints":[],"images":[],"securities":[],"amenities":[],"pets":[],"heatings":[],"parkings":[],"addl_spaces":[],"expenses":[]},{"city":"Beograd","county":"Grad Beograd","district":"Zvezdara","street":"Ulica Gvozdiceva","street_nb":null,"longitude":"20.4927400","latitude":"44.7961700","location_id":"NT_AYvxUAxQKf.oHH2LMaQraB","blueprints":[],"images":[],"securities":[],"amenities":[],"pets":[],"heatings":[],"parkings":[],"addl_spaces":[],"expenses":[]},{"city":"Beograd","county":"Grad Beograd","district":"Rakovica","street":"Ulica Patrijarha Joanikija","street_nb":"24","longitude":"20.4199900","latitude":"44.7378300","location_id":"NT_uZT2bHM0qpQpqj5Xb7rTMA_yQD","blueprints":[],"images":[],"securities":[],"amenities":[],"pets":[],"heatings":[],"parkings":[],"addl_spaces":[],"expenses":[]},{"city":"Beograd","county":"Grad Beograd","district":"Zvezdara","street":"Ulica Onisima Popovica","street_nb":"12","longitude":"20.5113500","latitude":"44.7894600","location_id":"NT_aFOGxGInsqMbcjtpzWuJhA_xID","blueprints":[],"images":[],"securities":[],"amenities":[],"pets":[],"heatings":[],"parkings":[],"addl_spaces":[],"expenses":[]},{"city":"Novi Sad","county":"Juzno-Backi Okrug","district":"Novi Sad","street":"Ulica Toplice Milana","street_nb":null,"longitude":"19.8318100","latitude":"45.2540800","location_id":"NT_.4DwjtB6zUN.4a9OYB2x.C","blueprints":[],"images":[],"securities":[],"amenities":[],"pets":[],"heatings":[],"parkings":[],"addl_spaces":[],"expenses":[]},{"city":"Beograd","county":"Grad Beograd","district":"Vozdovac","street":"Ulica Glasinacka","street_nb":null,"longitude":"20.5003200","latitude":"44.7822200","location_id":"NT_HVHZVis0c.9EfeRc796qUC","blueprints":[],"images":[],"securities":[],"amenities":[],"pets":[],"heatings":[],"parkings":[],"addl_spaces":[],"expenses":[]},{"city":"Beograd","county":"Grad Beograd","district":"Palilula","street":"Ulica Husinskih rudara","street_nb":"37","longitude":"20.5198100","latitude":"44.8099600","location_id":"NT_zbMPSbzDQHF84a8h9aBNpC_zcD","blueprints":[],"images":[],"securities":[],"amenities":[],"pets":[],"heatings":[],"parkings":[],"addl_spaces":[],"expenses":[]},{"city":"Beograd","county":"Grad Beograd","district":"Zvezdara","street":"Ulica Branka Copica","street_nb":null,"longitude":"20.5385900","latitude":"44.7874000","location_id":"NT_FzKSthsVvnZTC8y1Q1ZGpC","blueprints":[],"images":[],"securities":[],"amenities":[],"pets":[],"heatings":[],"parkings":[],"addl_spaces":[],"expenses":[]},{"city":"Beograd","county":"Grad Beograd","district":"Rakovica","street":"Ulica Stanka Paunovica Veljka","street_nb":null,"longitude":"20.4507000","latitude":"44.7435800","location_id":"NT_qCHTthmU-7gx7xm5HxsASB","blueprints":[],"images":[],"securities":[],"amenities":[],"pets":[],"heatings":[],"parkings":[],"addl_spaces":[],"expenses":[]},{"city":"Beograd","county":"Grad Beograd","district":"Cukarica","street":"Lazarevacki drum","street_nb":null,"longitude":"20.4085900","latitude":"44.7750900","location_id":"NT_57EbJ8iERMtZGU5mjPmc6C","blueprints":[],"images":[],"securities":[],"amenities":[],"pets":[],"heatings":[],"parkings":[],"addl_spaces":[],"expenses":[]},{"city":"Beograd","county":"Grad Beograd","district":"Vozdovac","street":"Ulica Jovana Deretica","street_nb":null,"longitude":"20.5015300","latitude":"44.7601200","location_id":"NT_Dlc6UFaYYvwd37ljlElO7D","blueprints":[],"images":[],"securities":[],"amenities":[],"pets":[],"heatings":[],"parkings":[],"addl_spaces":[],"expenses":[]},{"city":"Beograd","county":"Grad Beograd","district":"Cukarica","street":"Ulica Blagoja Parovica","street_nb":null,"longitude":"20.4194200","latitude":"44.7682700","location_id":"NT_DswGKPZFzTsqHFBQckcgDA","blueprints":[],"images":[],"securities":[],"amenities":[],"pets":[],"heatings":[],"parkings":[],"addl_spaces":[],"expenses":[]},{"city":"Beograd","county":"Grad Beograd","district":"Vozdovac","street":"Ulica Sumadijske divizije","street_nb":null,"longitude":"20.4901900","latitude":"44.7609800","location_id":"NT_weagETQJEnc.LpFiA32o8B","blueprints":[],"images":[],"securities":[],"amenities":[],"pets":[],"heatings":[],"parkings":[],"addl_spaces":[],"expenses":[]},{"city":"Beograd","county":"Grad Beograd","district":"Savski Venac","street":"Ulica Sarajevska","street_nb":null,"longitude":"20.4540100","latitude":"44.8028000","location_id":"NT_Y6rqU.yB63wpGKvxF5v4zD","blueprints":[],"images":[],"securities":[],"amenities":[],"pets":[],"heatings":[],"parkings":[],"addl_spaces":[],"expenses":[]},{"city":"Beograd","county":"Grad Beograd","district":"Zemun","street":"Ulica Zeleznicka","street_nb":null,"longitude":"20.3832500","latitude":"44.8365800","location_id":"NT_pEx9qzJwOHsuosyPRIR4pC","blueprints":[],"images":[],"securities":[],"amenities":[],"pets":[],"heatings":[],"parkings":[],"addl_spaces":[],"expenses":[]},{"city":"Beograd","county":"Grad Beograd","district":"Zvezdara","street":"Ulica Matice srpske","street_nb":"61","longitude":"20.5257600","latitude":"44.7898400","location_id":"NT_fim4AS.JCSk1DUZTqbJEiD_2ED","blueprints":[],"images":[],"securities":[],"amenities":[],"pets":[],"heatings":[],"parkings":[],"addl_spaces":[],"expenses":[]},{"city":"Beograd","county":"Grad Beograd","district":"Vozdovac","street":"Ulica Mestroviceva","street_nb":null,"longitude":"20.4932600","latitude":"44.7689900","location_id":"NT_16Ih19cYE8DVbSQrAHTkIA","blueprints":[],"images":[],"securities":[],"amenities":[],"pets":[],"heatings":[],"parkings":[],"addl_spaces":[],"expenses":[]},{"city":"Beograd","county":"Grad Beograd","district":"Zvezdara","street":"Ulica Vladimira Tomanovica","street_nb":null,"longitude":"20.5062500","latitude":"44.7802500","location_id":"NT_twIil-j3X5rl5xa3EZOfKC","blueprints":[],"images":[],"securities":[],"amenities":[],"pets":[],"heatings":[],"parkings":[],"addl_spaces":[],"expenses":[]},{"city":"Novi Sad","county":"Juzno-Backi Okrug","district":"Novi Sad","street":"Ulica Stevana Hristica","street_nb":null,"longitude":"19.8035400","latitude":"45.2485700","location_id":"NT_qOclTDLk2IthsmHoWbvKlC","blueprints":[],"images":[],"securities":[],"amenities":[],"pets":[],"heatings":[],"parkings":[],"addl_spaces":[],"expenses":[]},{"city":"Beograd","county":"Grad Beograd","district":"Novi Beograd","street":"Ulica Narodnih heroja","street_nb":null,"longitude":"20.4089100","latitude":"44.8246800","location_id":"NT_YJV1a.M5S7r6OjD15tbfZD","blueprints":[],"images":[],"securities":[],"amenities":[],"pets":[],"heatings":[],"parkings":[],"addl_spaces":[],"expenses":[]},{"city":"Beograd","county":"Grad Beograd","district":"Palilula","street":"Ulica Patrisa Lumumbe","street_nb":"36","longitude":"20.5096600","latitude":"44.8149200","location_id":"NT_lKkSavCsQ0zKoc0dhGlkDD_zYD","blueprints":[],"images":[],"securities":[],"amenities":[],"pets":[],"heatings":[],"parkings":[],"addl_spaces":[],"expenses":[]},{"city":"Beograd","county":"Grad Beograd","district":"Vozdovac","street":"Ulica Kostolacka","street_nb":null,"longitude":"20.4796300","latitude":"44.7704900","location_id":"NT_OdQxrejBwxUPVZZ5XgtmqA","blueprints":[],"images":[],"securities":[],"amenities":[],"pets":[],"heatings":[],"parkings":[],"addl_spaces":[],"expenses":[]},{"city":"Beograd","county":"Grad Beograd","district":"Zemun","street":"Ulica Mica Radakovica","street_nb":null,"longitude":"20.3924400","latitude":"44.8426700","location_id":"NT_bBMXDhtXgfGLKl56rqnGkD","blueprints":[],"images":[],"securities":[],"amenities":[],"pets":[],"heatings":[],"parkings":[],"addl_spaces":[],"expenses":[]},{"city":"Beograd","county":"Grad Beograd","district":"Novi Beograd","street":"Ulica Dzona Kenedija","street_nb":null,"longitude":"20.4064600","latitude":"44.8331000","location_id":"NT_l-4WeLVaR3JfD61IryTcuA","blueprints":[],"images":[],"securities":[],"amenities":[],"pets":[],"heatings":[],"parkings":[],"addl_spaces":[],"expenses":[]},{"city":"Beograd","county":"Grad Beograd","district":"Palilula","street":"Ulica Patrisa Lumumbe","street_nb":"76","longitude":"20.5156600","latitude":"44.8146900","location_id":"NT_lKkSavCsQ0zKoc0dhGlkDD_3YD","blueprints":[],"images":[],"securities":[],"amenities":[],"pets":[],"heatings":[],"parkings":[],"addl_spaces":[],"expenses":[]},{"city":"Beograd","county":"Grad Beograd","district":"Zvezdara","street":"Ulica Rudi Cajaveca","street_nb":null,"longitude":"20.5431700","latitude":"44.7922600","location_id":"NT_Av7xhE4Ny.CHHbXV98CwGB","blueprints":[],"images":[],"securities":[],"amenities":[],"pets":[],"heatings":[],"parkings":[],"addl_spaces":[],"expenses":[]},{"city":"Beograd","county":"Grad Beograd","district":"Savski Venac","street":"Ulica Sarajevska","street_nb":null,"longitude":"20.4540100","latitude":"44.8028000","location_id":"NT_Y6rqU.yB63wpGKvxF5v4zD","blueprints":[],"images":[],"securities":[],"amenities":[],"pets":[],"heatings":[],"parkings":[],"addl_spaces":[],"expenses":[]},{"city":"Novi Sad","county":"Juzno-Backi Okrug","district":"Novi Sad","street":"Ulica Vojvode Bojovica","street_nb":null,"longitude":"19.8389600","latitude":"45.2585800","location_id":"NT_9HzOcqFJEhRJijLySZZiBB","blueprints":[],"images":[],"securities":[],"amenities":[],"pets":[],"heatings":[],"parkings":[],"addl_spaces":[],"expenses":[]},{"city":"Beograd","county":"Grad Beograd","district":"Vracar","street":"Ulica Kneza od Semberije","street_nb":null,"longitude":"20.4828200","latitude":"44.7998700","location_id":"NT_2EL1SmyePAdp4ygWWmr47D","blueprints":[],"images":[],"securities":[],"amenities":[],"pets":[],"heatings":[],"parkings":[],"addl_spaces":[],"expenses":[]},{"city":"Beograd","county":"Grad Beograd","district":"Rakovica","street":"Ulica Visevacka","street_nb":"51","longitude":"20.4358900","latitude":"44.7422200","location_id":"NT_SJppsxyhORR8N8o2rhW6fB_1ED","blueprints":[],"images":[],"securities":[],"amenities":[],"pets":[],"heatings":[],"parkings":[],"addl_spaces":[],"expenses":[]},{"city":"Beograd","county":"Grad Beograd","district":"Rakovica","street":"Ulica Prvoboraca","street_nb":null,"longitude":"20.4266100","latitude":"44.7333100","location_id":"NT_co0GbpNze.Z2quPyr6u6aB","blueprints":[],"images":[],"securities":[],"amenities":[],"pets":[],"heatings":[],"parkings":[],"addl_spaces":[],"expenses":[]},{"city":"Beograd","county":"Grad Beograd","district":"Vracar","street":"Bulevar Kralja Aleksandra","street_nb":null,"longitude":"20.4767100","latitude":"44.8048300","location_id":"NT_u5aYCe1Z9NdyMhvW.k0kNA","blueprints":[],"images":[],"securities":[],"amenities":[],"pets":[],"heatings":[],"parkings":[],"addl_spaces":[],"expenses":[]},{"city":"Beograd","county":"Grad Beograd","district":"Cukarica","street":"Ulica Vladimira Rolovica","street_nb":null,"longitude":"20.4235300","latitude":"44.7583000","location_id":"NT_wrtB0t4Y6t75TP-uiq6-NC","blueprints":[],"images":[],"securities":[],"amenities":[],"pets":[],"heatings":[],"parkings":[],"addl_spaces":[],"expenses":[]},{"city":"Beograd","county":"Grad Beograd","district":"Vozdovac","street":"Ulica Ignjata Joba","street_nb":"22","longitude":"20.5005400","latitude":"44.7706300","location_id":"NT_A0pXv49nHn8hV2JEjf1hCC_yID","blueprints":[],"images":[],"securities":[],"amenities":[],"pets":[],"heatings":[],"parkings":[],"addl_spaces":[],"expenses":[]},{"city":"Beograd","county":"Grad Beograd","district":"Cukarica","street":"Ulica Stevana Luburica","street_nb":null,"longitude":"20.4223700","latitude":"44.7557900","location_id":"NT_TCrJdUSp33HEvTSKi34nYB","blueprints":[],"images":[],"securities":[],"amenities":[],"pets":[],"heatings":[],"parkings":[],"addl_spaces":[],"expenses":[]},{"city":"Beograd","county":"Grad Beograd","district":"Vozdovac","street":"Ulica Vojvode Stepe","street_nb":null,"longitude":"20.4715000","latitude":"44.7820600","location_id":"NT_uwEupjKFHmnvZ3kPsyKuwA","blueprints":[],"images":[],"securities":[],"amenities":[],"pets":[],"heatings":[],"parkings":[],"addl_spaces":[],"expenses":[]},{"city":"Pancevo","county":"Juzno-Banatski Okrug","district":"Pancevo","street":"Ulica Njegoseva","street_nb":null,"longitude":"20.6431100","latitude":"44.8712300","location_id":"NT_QQwAwvh.cGWw6Lmw.iOBqC","blueprints":[],"images":[],"securities":[],"amenities":[],"pets":[],"heatings":[],"parkings":[],"addl_spaces":[],"expenses":[]},{"city":"Pancevo","county":"Juzno-Banatski Okrug","district":"Pancevo","street":"Ulica Jovana Gavrilovica","street_nb":null,"longitude":"20.6589200","latitude":"44.8769400","location_id":"NT_vj-OhjfokMRaaMj21ismVB","blueprints":[],"images":[],"securities":[],"amenities":[],"pets":[],"heatings":[],"parkings":[],"addl_spaces":[],"expenses":[]},{"city":"Pancevo","county":"Juzno-Banatski Okrug","district":"Pancevo","street":"Ulica Njegoseva","street_nb":null,"longitude":"20.6431100","latitude":"44.8712300","location_id":"NT_QQwAwvh.cGWw6Lmw.iOBqC","blueprints":[],"images":[],"securities":[],"amenities":[],"pets":[],"heatings":[],"parkings":[],"addl_spaces":[],"expenses":[]},{"city":"Beograd","county":"Grad Beograd","district":"Novi Beograd","street":"Ulica Dusana Vukasovica","street_nb":null,"longitude":"20.3740200","latitude":"44.8026800","location_id":"NT_qvIXGD7pnGFeZe8mFqAGtA","blueprints":[],"images":[],"securities":[],"amenities":[],"pets":[],"heatings":[],"parkings":[],"addl_spaces":[],"expenses":[]},{"city":"Beograd","county":"Grad Beograd","district":"Zvezdara","street":"Ulica Uciteljska","street_nb":"42","longitude":"20.5099700","latitude":"44.7871400","location_id":"NT_yWAZ-4l8.wljLg69dTeT-D_0ID","blueprints":[],"images":[],"securities":[],"amenities":[],"pets":[],"heatings":[],"parkings":[],"addl_spaces":[],"expenses":[]},{"city":"Beograd","county":"Grad Beograd","district":"Rakovica","street":"Ulica Mile Dimic","street_nb":"29","longitude":"20.4326200","latitude":"44.7455400","location_id":"NT_LAMUyXH..Uu3y0q-DboJMC_ykD","blueprints":[],"images":[],"securities":[],"amenities":[],"pets":[],"heatings":[],"parkings":[],"addl_spaces":[],"expenses":[]},{"city":"Beograd","county":"Grad Beograd","district":"Novi Beograd","street":"Ulica Otona Zupancica","street_nb":null,"longitude":"20.4073000","latitude":"44.8350400","location_id":"NT_59vX1A4dAAdvQtmncd3doA","blueprints":[],"images":[],"securities":[],"amenities":[],"pets":[],"heatings":[],"parkings":[],"addl_spaces":[],"expenses":[]},{"city":"Beograd","county":"Grad Beograd","district":"Novi Beograd","street":"Ulica Studentska","street_nb":null,"longitude":"20.4017300","latitude":"44.8254200","location_id":"NT_C8oEsBk.5XWmCafimT46aB","blueprints":[],"images":[],"securities":[],"amenities":[],"pets":[],"heatings":[],"parkings":[],"addl_spaces":[],"expenses":[]},{"city":"Beograd","county":"Grad Beograd","district":"Savski Venac","street":"Ulica Kneza Milosa","street_nb":null,"longitude":"20.4578800","latitude":"44.8037400","location_id":"NT_Z85PtQqxICdxZzhgDhmtpA","blueprints":[],"images":[],"securities":[],"amenities":[],"pets":[],"heatings":[],"parkings":[],"addl_spaces":[],"expenses":[]},{"city":"Bor","county":"Borski Okrug","district":"Bor","street":"Ulica Jovana Ducica","street_nb":null,"longitude":"22.1007700","latitude":"44.0689700","location_id":"NT_3B2B.btbZJCi5cQcCAfK4B","blueprints":[],"images":[],"securities":[],"amenities":[],"pets":[],"heatings":[],"parkings":[],"addl_spaces":[],"expenses":[]},{"city":"Kragujevac","county":"Sumadijski Okrug","district":"Kragujevac","street":"Ulica Steve Jakovljevica","street_nb":"4","longitude":"20.9108658","latitude":"44.0245021","location_id":"NT_tL13KROxZ9IXLrxKRhUBVB_0A","blueprints":[],"images":[],"securities":[],"amenities":[],"pets":[],"heatings":[],"parkings":[],"addl_spaces":[],"expenses":[]},{"city":"Beograd","county":"Grad Beograd","district":"Zvezdara","street":"Ulica Ustanicka","street_nb":null,"longitude":"20.5161100","latitude":"44.7834300","location_id":"NT_rFCT45m6jYWTz.Xs3.mgAD","blueprints":[],"images":[],"securities":[],"amenities":[],"pets":[],"heatings":[],"parkings":[],"addl_spaces":[],"expenses":[]},{"city":"Beograd","county":"Grad Beograd","district":"Palilula","street":"Ulica Homoljska","street_nb":null,"longitude":"20.5119100","latitude":"44.8154600","location_id":"NT_CjJYhAGQQu.O9Ex3WzWulB","blueprints":[],"images":[],"securities":[],"amenities":[],"pets":[],"heatings":[],"parkings":[],"addl_spaces":[],"expenses":[]},{"city":"Novi Sad","county":"Juzno-Backi Okrug","district":"Novi Sad","street":"Ulica Kisacka","street_nb":null,"longitude":"19.8397900","latitude":"45.2626200","location_id":"NT_qnJsLzq9Ody.16FFsmcxtD","blueprints":[],"images":[],"securities":[],"amenities":[],"pets":[],"heatings":[],"parkings":[],"addl_spaces":[],"expenses":[]},{"city":"Indjija","county":"Sremski Okrug","district":"Indjija","street":"Ulica Jug-Bogdanova","street_nb":null,"longitude":"20.0891600","latitude":"45.0431500","location_id":"NT_2txwf8xKOZZxqX5OOht3nB","blueprints":[],"images":[],"securities":[],"amenities":[],"pets":[],"heatings":[],"parkings":[],"addl_spaces":[],"expenses":[]},{"city":"Kragujevac","county":"Sumadijski Okrug","district":"Kragujevac","street":"Ulica Crvenog krsta","street_nb":null,"longitude":"20.9181600","latitude":"44.0197100","location_id":"NT_7xtYArZrj7.ItmUIetCCJB","blueprints":[],"images":[],"securities":[],"amenities":[],"pets":[],"heatings":[],"parkings":[],"addl_spaces":[],"expenses":[]},{"city":"Beograd","county":"Grad Beograd","district":"Vozdovac","street":"Ulica Vojvode Stepe","street_nb":null,"longitude":"20.4715000","latitude":"44.7820600","location_id":"NT_uwEupjKFHmnvZ3kPsyKuwA","blueprints":[],"images":[],"securities":[],"amenities":[],"pets":[],"heatings":[],"parkings":[],"addl_spaces":[],"expenses":[]},{"city":"Beograd","county":"Grad Beograd","district":"Cukarica","street":"Ulica Ilije Djuricica","street_nb":null,"longitude":"20.4108200","latitude":"44.7594100","location_id":"NT_b-OJjvrX-z-.JjgsqEMARA","blueprints":[],"images":[],"securities":[],"amenities":[],"pets":[],"heatings":[],"parkings":[],"addl_spaces":[],"expenses":[]},{"city":"Beograd","county":"Grad Beograd","district":"Cukarica","street":"Ulica Obalskih radnika","street_nb":null,"longitude":"20.4042900","latitude":"44.7776400","location_id":"NT_-PMgx.lpQ.XPc4Ipc04fTC","blueprints":[],"images":[],"securities":[],"amenities":[],"pets":[],"heatings":[],"parkings":[],"addl_spaces":[],"expenses":[]},{"city":"Beograd","county":"Grad Beograd","district":"Vozdovac","street":"Ulica Vojvode Djurovica","street_nb":null,"longitude":"20.4786000","latitude":"44.7812000","location_id":"NT_MdHwgFwBXeTTURbtlwdqVD","blueprints":[],"images":[],"securities":[],"amenities":[],"pets":[],"heatings":[],"parkings":[],"addl_spaces":[],"expenses":[]},{"city":"Beograd","county":"Grad Beograd","district":"Cukarica","street":"Ulica Radnicka","street_nb":"3","longitude":"20.4223100","latitude":"44.7891900","location_id":"NT_FnIrPAC2LJaxOR9iiaytgC_zA","blueprints":[],"images":[],"securities":[],"amenities":[],"pets":[],"heatings":[],"parkings":[],"addl_spaces":[],"expenses":[]},{"city":"Novi Sad","county":"Juzno-Backi Okrug","district":"Novi Sad","street":"Ulica Dusana Vasiljeva","street_nb":"18","longitude":"19.8537000","latitude":"45.2602400","location_id":"NT_dxmvmyWVz-PmTRUSTpf21D_xgD","blueprints":[],"images":[],"securities":[],"amenities":[],"pets":[],"heatings":[],"parkings":[],"addl_spaces":[],"expenses":[]},{"city":"Beograd","county":"Grad Beograd","district":"Savski Venac","street":"Ulica Jug-Bogdanova","street_nb":"21","longitude":"20.4541300","latitude":"44.8141300","location_id":"NT_ANOSKo.YibJrCpoYYeZrCB_yED","blueprints":[],"images":[],"securities":[],"amenities":[],"pets":[],"heatings":[],"parkings":[],"addl_spaces":[],"expenses":[]},{"city":"Beograd","county":"Grad Beograd","district":"Cukarica","street":"Ulica Vodovodska","street_nb":"138","longitude":"20.4044000","latitude":"44.7557700","location_id":"NT_JGcC8-OVQzjUhd40jAp.1A_xMDO","blueprints":[],"images":[],"securities":[],"amenities":[],"pets":[],"heatings":[],"parkings":[],"addl_spaces":[],"expenses":[]},{"city":"Novi Sad","county":"Juzno-Backi Okrug","district":"Novi Sad","street":"Ulica Janka Cmelika","street_nb":"35","longitude":"19.8120100","latitude":"45.2592000","location_id":"NT_aPjbwDJ0qvupQGUrl-jagA_zUD","blueprints":[],"images":[],"securities":[],"amenities":[],"pets":[],"heatings":[],"parkings":[],"addl_spaces":[],"expenses":[]},{"city":"Palilula","county":"Grad Beograd","district":"Borca","street":"Ulica Julije Delere","street_nb":null,"longitude":"20.4532400","latitude":"44.8790700","location_id":"NT_V-fU-Ea3OpB4u.dGaOMORC","blueprints":[],"images":[],"securities":[],"amenities":[],"pets":[],"heatings":[],"parkings":[],"addl_spaces":[],"expenses":[]},{"city":"Beograd","county":"Grad Beograd","district":"Zemun","street":"Ulica Karlovacka","street_nb":null,"longitude":"20.3856800","latitude":"44.8531900","location_id":"NT_nvkdbOqgxG.-WJURgs3jJD","blueprints":[],"images":[],"securities":[],"amenities":[],"pets":[],"heatings":[],"parkings":[],"addl_spaces":[],"expenses":[]},{"city":"Beograd","county":"Grad Beograd","district":"Rakovica","street":"Ulica Kosmajskog odreda","street_nb":null,"longitude":"20.4396700","latitude":"44.7491300","location_id":"NT_Uhl5GHscJ2ftZKUIZf9dWB","blueprints":[],"images":[],"securities":[],"amenities":[],"pets":[],"heatings":[],"parkings":[],"addl_spaces":[],"expenses":[]},{"city":"Beograd","county":"Grad Beograd","district":"Rakovica","street":"Ulica Prvoboraca","street_nb":null,"longitude":"20.4266100","latitude":"44.7333100","location_id":"NT_co0GbpNze.Z2quPyr6u6aB","blueprints":[],"images":[],"securities":[],"amenities":[],"pets":[],"heatings":[],"parkings":[],"addl_spaces":[],"expenses":[]},{"city":"Beograd","county":"Grad Beograd","district":"Vozdovac","street":"Ulica Mirca Aceva","street_nb":null,"longitude":"20.4865600","latitude":"44.7781200","location_id":"NT_jH5pUCoZdQ0y-2pthTsGaA","blueprints":[],"images":[],"securities":[],"amenities":[],"pets":[],"heatings":[],"parkings":[],"addl_spaces":[],"expenses":[]},{"city":"Beograd","county":"Grad Beograd","district":"Zvezdara","street":"Ulica Dimitrija Tucovica","street_nb":null,"longitude":"20.4908600","latitude":"44.8021400","location_id":"NT_GI-ALaGtKMSTmF9xfPHTCC","blueprints":[],"images":[],"securities":[],"amenities":[],"pets":[],"heatings":[],"parkings":[],"addl_spaces":[],"expenses":[]},{"city":"Beograd","county":"Grad Beograd","district":"Stari Grad","street":"Ulica Koste Stojanovica","street_nb":null,"longitude":"20.4701900","latitude":"44.8140100","location_id":"NT_YNZtdOzKOuCMPSAlX3sLmA","blueprints":[],"images":[],"securities":[],"amenities":[],"pets":[],"heatings":[],"parkings":[],"addl_spaces":[],"expenses":[]},{"city":"Beograd","county":"Grad Beograd","district":"Palilula","street":"Ulica Patrisa Lumumbe","street_nb":null,"longitude":"20.5144900","latitude":"44.8148200","location_id":"NT_lKkSavCsQ0zKoc0dhGlkDD","blueprints":[],"images":[],"securities":[],"amenities":[],"pets":[],"heatings":[],"parkings":[],"addl_spaces":[],"expenses":[]},{"city":"Beograd","county":"Grad Beograd","district":"Palilula","street":"Ulica Husinskih rudara","street_nb":null,"longitude":"20.5194400","latitude":"44.8103400","location_id":"NT_zbMPSbzDQHF84a8h9aBNpC","blueprints":[],"images":[],"securities":[],"amenities":[],"pets":[],"heatings":[],"parkings":[],"addl_spaces":[],"expenses":[]},{"city":"Palilula","county":"Grad Beograd","district":"Kotez","street":"Ulica Tomasevacka","street_nb":null,"longitude":"20.4789200","latitude":"44.8571800","location_id":"NT_Pq68Zp.mhzsaTS7ShShfGB","blueprints":[],"images":[],"securities":[],"amenities":[],"pets":[],"heatings":[],"parkings":[],"addl_spaces":[],"expenses":[]},{"city":"Beograd","county":"Grad Beograd","district":"Zvezdara","street":"Ulica Hadzi-Mustafina","street_nb":null,"longitude":"20.4956600","latitude":"44.8003900","location_id":"NT_c9D6pPduYbsg5f8UmsuKAA","blueprints":[],"images":[],"securities":[],"amenities":[],"pets":[],"heatings":[],"parkings":[],"addl_spaces":[],"expenses":[]},{"city":"Cukarica","county":"Grad Beograd","district":"Zeleznik","street":"Ulica Bore Stankovica","street_nb":null,"longitude":"20.3654700","latitude":"44.7311600","location_id":"NT_jcAdIG4M8Sdc04fOi.FOxD","blueprints":[],"images":[],"securities":[],"amenities":[],"pets":[],"heatings":[],"parkings":[],"addl_spaces":[],"expenses":[]},{"city":"Beograd","county":"Grad Beograd","district":"Cukarica","street":"Ulica Pozeska","street_nb":"174","longitude":"20.4133200","latitude":"44.7698000","location_id":"NT_BH3lt6NCUlITDV74Fq7BGA_xcDN","blueprints":[],"images":[],"securities":[],"amenities":[],"pets":[],"heatings":[],"parkings":[],"addl_spaces":[],"expenses":[]},{"city":"Cukarica","county":"Grad Beograd","district":"Zeleznik","street":"Ulica Bore Radojevica","street_nb":null,"longitude":"20.3654200","latitude":"44.7197000","location_id":"NT_LQYoQbVT4UU4py5bvw9cCB","blueprints":[],"images":[],"securities":[],"amenities":[],"pets":[],"heatings":[],"parkings":[],"addl_spaces":[],"expenses":[]},{"city":"Beograd","county":"Grad Beograd","district":"Palilula","street":"Ulica Dalmatinska","street_nb":"19","longitude":"20.4741400","latitude":"44.8139500","location_id":"NT_kRippoBcV1YeqVikqZQQFC_xkD","blueprints":[],"images":[],"securities":[],"amenities":[],"pets":[],"heatings":[],"parkings":[],"addl_spaces":[],"expenses":[]}]